release_id,policy_result_run_id,exclusion_reason,plant_id,eia_plant_code,plant_name,utility_id,utility_name,plant_state,plant_county,street_address,city,zip,plant_latitude,plant_longitude,readiness_status,reason_code,notes
scoped_plant_ecwt_release_20260625T161629Z,plant_ecwt_policy_result_all_plants_normalized_active_window_loaded_year_20260625T161313Z,alaska_excluded_by_scope,eia860:2024:plant:1,1,Sand Point,63560,"Sand Point Generating, LLC",AK,Aleutians East,100 Power Plant Way,Sand Point,99661,55.339722,-160.497222,publication_candidate,passes_normalized_active_window_policy,Excluded from current publication scope by user direction.
scoped_plant_ecwt_release_20260625T161629Z,plant_ecwt_policy_result_all_plants_normalized_active_window_loaded_year_20260625T161313Z,alaska_excluded_by_scope,eia860:2024:plant:62,62,Annex Creek,213,Alaska Electric Light & Power Co.,AK,Juneau,Annex Creek,Juneau,99801,58.317600,-134.101000,publication_candidate,passes_current_fixed_period_gate,Excluded from current publication scope by user direction.
scoped_plant_ecwt_release_20260625T161629Z,plant_ecwt_policy_result_all_plants_normalized_active_window_loaded_year_20260625T161313Z,alaska_excluded_by_scope,eia860:2024:plant:63,63,Gold Creek,213,Alaska Electric Light & Power Co.,AK,Juneau,700 Capital Ave.,Juneau,99801,58.310700,-134.417400,publication_candidate,passes_current_fixed_period_gate,Excluded from current publication scope by user direction.
scoped_plant_ecwt_release_20260625T161629Z,plant_ecwt_policy_result_all_plants_normalized_active_window_loaded_year_20260625T161313Z,alaska_excluded_by_scope,eia860:2024:plant:64,64,Lemon Creek,213,Alaska Electric Light & Power Co.,AK,Juneau,5601 Tonsgard Ct.,Juneau,99801,58.353600,-134.495300,publication_candidate,passes_current_fixed_period_gate,Excluded from current publication scope by user direction.
scoped_plant_ecwt_release_20260625T161629Z,plant_ecwt_policy_result_all_plants_normalized_active_window_loaded_year_20260625T161313Z,alaska_excluded_by_scope,eia860:2024:plant:65,65,Salmon Creek 1,213,Alaska Electric Light & Power Co.,AK,Juneau,2750 Channel Vista Dr.,Juneau,99801,58.326900,-134.463100,publication_candidate,passes_current_fixed_period_gate,Excluded from current publication scope by user direction.
scoped_plant_ecwt_release_20260625T161629Z,plant_ecwt_policy_result_all_plants_normalized_active_window_loaded_year_20260625T161313Z,alaska_excluded_by_scope,eia860:2024:plant:66,66,Skagway,219,Alaska Power and Telephone Co,AK,Skagway Hoonah Angoon,110 Spring St,Skagway,99840,59.454500,-135.313100,publication_candidate,passes_current_fixed_period_gate,Excluded from current publication scope by user direction.
scoped_plant_ecwt_release_20260625T161629Z,plant_ecwt_policy_result_all_plants_normalized_active_window_loaded_year_20260625T161313Z,alaska_excluded_by_scope,eia860:2024:plant:69,69,Haines,219,Alaska Power and Telephone Co,AK,Haines,241 Dalton St.,Haines,99927,59.235931,-135.446228,publication_candidate,passes_current_fixed_period_gate,Excluded from current publication scope by user direction.
scoped_plant_ecwt_release_20260625T161629Z,plant_ecwt_policy_result_all_plants_normalized_active_window_loaded_year_20260625T161313Z,alaska_excluded_by_scope,eia860:2024:plant:70,70,Swan Lake,60123,Southeast Alaska Power Agency,AK,Ketchikan Gateway,Carroll Inlet,Ketchikan,99901,55.615208,-131.356111,publication_candidate,passes_current_fixed_period_gate,Excluded from current publication scope by user direction.
scoped_plant_ecwt_release_20260625T161629Z,plant_ecwt_policy_result_all_plants_normalized_active_window_loaded_year_20260625T161313Z,alaska_excluded_by_scope,eia860:2024:plant:71,71,Terror Lake Microgrid,10433,Kodiak Electric Assn Inc,AK,Kodiak Island,20 miles southwest of Kodiak,Kodiak,99615,57.686100,-152.895000,publication_candidate,passes_normalized_active_window_policy,Excluded from current publication scope by user direction.
scoped_plant_ecwt_release_20260625T161629Z,plant_ecwt_policy_result_all_plants_normalized_active_window_loaded_year_20260625T161313Z,alaska_excluded_by_scope,eia860:2024:plant:75,75,Hank Nikkels Plant 1,3522,Chugach Electric Assn Inc,AK,Anchorage,821 E. 1st Ave,Anchorage,99501,61.222100,-149.866100,publication_candidate,passes_normalized_active_window_policy,Excluded from current publication scope by user direction.
scoped_plant_ecwt_release_20260625T161629Z,plant_ecwt_policy_result_all_plants_normalized_active_window_loaded_year_20260625T161313Z,alaska_excluded_by_scope,eia860:2024:plant:77,77,Eklutna Hydro Project,3522,Chugach Electric Assn Inc,AK,Matanuska Susitna,Mile 4 Old Glenn Hwy.,Palmer,99645,61.475211,-149.150090,publication_candidate,passes_normalized_active_window_policy,Excluded from current publication scope by user direction.
scoped_plant_ecwt_release_20260625T161629Z,plant_ecwt_policy_result_all_plants_normalized_active_window_loaded_year_20260625T161313Z,alaska_excluded_by_scope,eia860:2024:plant:78,78,Snettisham,213,Alaska Electric Light & Power Co.,AK,Juneau,Port Snettisham,Juneau,99801,58.141500,-133.737000,publication_candidate,passes_current_fixed_period_gate,Excluded from current publication scope by user direction.
scoped_plant_ecwt_release_20260625T161629Z,plant_ecwt_policy_result_all_plants_normalized_active_window_loaded_year_20260625T161313Z,alaska_excluded_by_scope,eia860:2024:plant:79,79,Chena Power Plant,986,Aurora Energy LLC,AK,Fairbanks North Star,1206 First Ave.,Fairbanks,99701,64.847743,-147.735063,publication_candidate,passes_normalized_active_window_policy,Excluded from current publication scope by user direction.
scoped_plant_ecwt_release_20260625T161629Z,plant_ecwt_policy_result_all_plants_normalized_active_window_loaded_year_20260625T161313Z,alaska_excluded_by_scope,eia860:2024:plant:84,84,Ketchikan,10210,Ketchikan Public Utilities,AK,Ketchikan Gateway,1037 Fair St.,Ketchikan,99901,55.344641,-131.633425,publication_candidate,passes_current_fixed_period_gate,Excluded from current publication scope by user direction.
scoped_plant_ecwt_release_20260625T161629Z,plant_ecwt_policy_result_all_plants_normalized_active_window_loaded_year_20260625T161313Z,alaska_excluded_by_scope,eia860:2024:plant:85,85,S W Bailey,10210,Ketchikan Public Utilities,AK,Ketchikan Gateway,3935 Tongass Ave.,Ketchikan,99901,55.357397,-131.696960,publication_candidate,passes_current_fixed_period_gate,Excluded from current publication scope by user direction.
scoped_plant_ecwt_release_20260625T161629Z,plant_ecwt_policy_result_all_plants_normalized_active_window_loaded_year_20260625T161313Z,alaska_excluded_by_scope,eia860:2024:plant:90,90,Snake River,13642,Nome Joint Utility Systems,AK,Nome,1226 Port Road,Nome,99762,64.505331,-165.429814,publication_candidate,passes_normalized_active_window_policy,Excluded from current publication scope by user direction.
scoped_plant_ecwt_release_20260625T161629Z,plant_ecwt_policy_result_all_plants_normalized_active_window_loaded_year_20260625T161313Z,alaska_excluded_by_scope,eia860:2024:plant:91,91,Petersburg,14856,Petersburg Borough - (AK),AK,Wrangell Petersburg,11 S. Nordic Drive,Petersburg,99833,56.811040,-132.957091,publication_candidate,passes_current_fixed_period_gate,Excluded from current publication scope by user direction.
scoped_plant_ecwt_release_20260625T161629Z,plant_ecwt_policy_result_all_plants_normalized_active_window_loaded_year_20260625T161313Z,alaska_excluded_by_scope,eia860:2024:plant:92,92,Seward (AK),16955,City of Seward - (AK),AK,Kenai Peninsula,605 SeaLion Avenue,Seward,99664,60.130922,-149.435010,publication_candidate,passes_normalized_active_window_policy,Excluded from current publication scope by user direction.
scoped_plant_ecwt_release_20260625T161629Z,plant_ecwt_policy_result_all_plants_normalized_active_window_loaded_year_20260625T161313Z,alaska_excluded_by_scope,eia860:2024:plant:93,93,Blue Lake Hydro,17271,City & Borough of Sitka - (AK),AK,Sitka,SMC,Sitka,99835,57.051600,-135.229700,publication_candidate,passes_current_fixed_period_gate,Excluded from current publication scope by user direction.
scoped_plant_ecwt_release_20260625T161629Z,plant_ecwt_policy_result_all_plants_normalized_active_window_loaded_year_20260625T161313Z,alaska_excluded_by_scope,eia860:2024:plant:95,95,Wrangell,21015,City of Wrangell - (AK),AK,Wrangell Petersburg,1043 Case Ave,Wrangell,99929,56.460976,-132.379439,publication_candidate,passes_current_fixed_period_gate,Excluded from current publication scope by user direction.
scoped_plant_ecwt_release_20260625T161629Z,plant_ecwt_policy_result_all_plants_normalized_active_window_loaded_year_20260625T161313Z,alaska_excluded_by_scope,eia860:2024:plant:96,96,Beluga,3522,Chugach Electric Assn Inc,AK,Kenai Peninsula,Beluga Power Plant,Beluga,99682,61.186100,-151.035600,publication_candidate,passes_normalized_active_window_policy,Excluded from current publication scope by user direction.
scoped_plant_ecwt_release_20260625T161629Z,plant_ecwt_policy_result_all_plants_normalized_active_window_loaded_year_20260625T161313Z,alaska_excluded_by_scope,eia860:2024:plant:109,109,Dillingham,13870,"Nushagak Electric Coop, Inc",AK,Dillingham,557 Kenny Wren Rd.,Dillingham,99576,59.042914,-158.468597,publication_candidate,passes_normalized_active_window_policy,Excluded from current publication scope by user direction.
scoped_plant_ecwt_release_20260625T161629Z,plant_ecwt_policy_result_all_plants_normalized_active_window_loaded_year_20260625T161313Z,alaska_excluded_by_scope,eia860:2024:plant:313,313,Green Lake,17271,City & Borough of Sitka - (AK),AK,Sitka,SMC,Sitka,99835,56.986284,-135.122750,publication_candidate,passes_current_fixed_period_gate,Excluded from current publication scope by user direction.
scoped_plant_ecwt_release_20260625T161629Z,plant_ecwt_policy_result_all_plants_normalized_active_window_loaded_year_20260625T161313Z,alaska_excluded_by_scope,eia860:2024:plant:390,390,Solomon Gulch,4329,"Copper Valley Elec Assn, Inc",AK,Valdez Cordova,1455 Dayville road,Valdez,99686,61.082800,-146.303300,publication_candidate,passes_normalized_active_window_policy,Excluded from current publication scope by user direction.
scoped_plant_ecwt_release_20260625T161629Z,plant_ecwt_policy_result_all_plants_normalized_active_window_loaded_year_20260625T161313Z,alaska_excluded_by_scope,eia860:2024:plant:406,406,Tok,219,Alaska Power and Telephone Co,AK,Southeast Fairbanks,Milepost 1314 AK Hwy,Tok,99780,63.335520,-142.999970,publication_candidate,passes_current_fixed_period_gate,Excluded from current publication scope by user direction.
scoped_plant_ecwt_release_20260625T161629Z,plant_ecwt_policy_result_all_plants_normalized_active_window_loaded_year_20260625T161313Z,alaska_excluded_by_scope,eia860:2024:plant:421,421,Craig (AK),219,Alaska Power and Telephone Co,AK,Prince of Wales Ketchikan,401 7th Street,Craig,99921,55.476910,-133.148690,publication_candidate,passes_current_fixed_period_gate,Excluded from current publication scope by user direction.
scoped_plant_ecwt_release_20260625T161629Z,plant_ecwt_policy_result_all_plants_normalized_active_window_loaded_year_20260625T161313Z,alaska_excluded_by_scope,eia860:2024:plant:423,423,Hydaburg,219,Alaska Power and Telephone Co,AK,Prince of Wales Ketchikan,105 Hyda Street,Prince of Wales,99922,55.204937,-132.821435,publication_candidate,passes_current_fixed_period_gate,Excluded from current publication scope by user direction.
scoped_plant_ecwt_release_20260625T161629Z,plant_ecwt_policy_result_all_plants_normalized_active_window_loaded_year_20260625T161313Z,alaska_excluded_by_scope,eia860:2024:plant:789,789,Orca,40215,"Cordova Electric Coop, Inc",AK,Valdez Cordova,103 Orca Road,Cordova,99574,60.555889,-145.752983,publication_candidate,passes_normalized_active_window_policy,Excluded from current publication scope by user direction.
scoped_plant_ecwt_release_20260625T161629Z,plant_ecwt_policy_result_all_plants_normalized_active_window_loaded_year_20260625T161313Z,alaska_excluded_by_scope,eia860:2024:plant:6281,6281,Kodiak Microgrid,10433,Kodiak Electric Assn Inc,AK,Kodiak Island,615 Sargent St.,Kodiak,99615,57.789956,-152.396982,publication_candidate,passes_normalized_active_window_policy,Excluded from current publication scope by user direction.
scoped_plant_ecwt_release_20260625T161629Z,plant_ecwt_policy_result_all_plants_normalized_active_window_loaded_year_20260625T161313Z,alaska_excluded_by_scope,eia860:2024:plant:6282,6282,Port Lions Microgrid,10433,Kodiak Electric Assn Inc,AK,Kodiak Island,20 miles west of Kodiak,Port Lions,99660,57.864775,-152.855441,publication_candidate,passes_normalized_active_window_policy,Excluded from current publication scope by user direction.
scoped_plant_ecwt_release_20260625T161629Z,plant_ecwt_policy_result_all_plants_normalized_active_window_loaded_year_20260625T161313Z,alaska_excluded_by_scope,eia860:2024:plant:6283,6283,Seldovia,19558,Homer Electric Assn Inc,AK,Kenai Peninsula,270 Winifred Avenue,Seldovia,99663,59.439542,-151.713439,publication_candidate,passes_normalized_active_window_policy,Excluded from current publication scope by user direction.
scoped_plant_ecwt_release_20260625T161629Z,plant_ecwt_policy_result_all_plants_normalized_active_window_loaded_year_20260625T161313Z,alaska_excluded_by_scope,eia860:2024:plant:6285,6285,North Pole,7353,Golden Valley Elec Assn Inc,AK,Fairbanks North Star,1150 H&H Lane,North Pole,99705,64.735600,-147.348100,publication_candidate,passes_normalized_active_window_policy,Excluded from current publication scope by user direction.
scoped_plant_ecwt_release_20260625T161629Z,plant_ecwt_policy_result_all_plants_normalized_active_window_loaded_year_20260625T161313Z,alaska_excluded_by_scope,eia860:2024:plant:6286,6286,Fairbanks,7353,Golden Valley Elec Assn Inc,AK,Fairbanks North Star,758 Illinois Street,Fairbanks,99701,64.854171,-147.719351,publication_candidate,passes_normalized_active_window_policy,Excluded from current publication scope by user direction.
scoped_plant_ecwt_release_20260625T161629Z,plant_ecwt_policy_result_all_plants_normalized_active_window_loaded_year_20260625T161313Z,alaska_excluded_by_scope,eia860:2024:plant:6288,6288,Healy,7353,Golden Valley Elec Assn Inc,AK,Denali,2.5 Mile Healy Spur Road,Healy,99743,63.854200,-148.950000,publication_candidate,passes_normalized_active_window_policy,Excluded from current publication scope by user direction.
scoped_plant_ecwt_release_20260625T161629Z,plant_ecwt_policy_result_all_plants_normalized_active_window_loaded_year_20260625T161313Z,alaska_excluded_by_scope,eia860:2024:plant:6291,6291,Cooper Lake,3522,Chugach Electric Assn Inc,AK,Kenai Peninsula,Mile 12 Snug Harbor Road,Cooper Landing,99572,60.392331,-149.665603,publication_candidate,passes_normalized_active_window_policy,Excluded from current publication scope by user direction.
scoped_plant_ecwt_release_20260625T161629Z,plant_ecwt_policy_result_all_plants_normalized_active_window_loaded_year_20260625T161313Z,alaska_excluded_by_scope,eia860:2024:plant:6292,6292,Bernice Lake,19558,Homer Electric Assn Inc,AK,Kenai Peninsula,53318 Chevron Refinery Road,Nikiski,99635,60.693500,-151.387400,publication_candidate,passes_normalized_active_window_policy,Excluded from current publication scope by user direction.
scoped_plant_ecwt_release_20260625T161629Z,plant_ecwt_policy_result_all_plants_normalized_active_window_loaded_year_20260625T161313Z,alaska_excluded_by_scope,eia860:2024:plant:6293,6293,International,3522,Chugach Electric Assn Inc,AK,Anchorage,5601 Electron Dr.,Anchorage,99518,61.168972,-149.911038,publication_candidate,passes_normalized_active_window_policy,Excluded from current publication scope by user direction.
scoped_plant_ecwt_release_20260625T161629Z,plant_ecwt_policy_result_all_plants_normalized_active_window_loaded_year_20260625T161313Z,alaska_excluded_by_scope,eia860:2024:plant:6299,6299,Unalakleet,40548,Unalakleet Valley Elec Coop,AK,Nome,186 Main Street,Unalakleet,99684,63.876789,-160.790414,publication_candidate,passes_normalized_active_window_policy,Excluded from current publication scope by user direction.
scoped_plant_ecwt_release_20260625T161629Z,plant_ecwt_policy_result_all_plants_normalized_active_window_loaded_year_20260625T161313Z,alaska_excluded_by_scope,eia860:2024:plant:6301,6301,Naknek,13201,"Naknek Electric Assn, Inc",AK,Bristol Bay,1 School Road,Naknek,99633,58.730417,-157.007222,publication_candidate,passes_normalized_active_window_policy,Excluded from current publication scope by user direction.
scoped_plant_ecwt_release_20260625T161629Z,plant_ecwt_policy_result_all_plants_normalized_active_window_loaded_year_20260625T161313Z,alaska_excluded_by_scope,eia860:2024:plant:6302,6302,Purple Lake,12385,Metlakatla Power & Light,AK,Prince of Wales Ketchikan,Hatchery Road,Metlakatla,99926,55.091263,-131.544978,publication_candidate,passes_current_fixed_period_gate,Excluded from current publication scope by user direction.
scoped_plant_ecwt_release_20260625T161629Z,plant_ecwt_policy_result_all_plants_normalized_active_window_loaded_year_20260625T161313Z,alaska_excluded_by_scope,eia860:2024:plant:6304,6304,Kotzebue Hybrid,10451,Kotzebue Electric Assn Inc,AK,NORTHWEST ARCTIC,245 4th Street,Kotzebue,99752,66.837778,-162.556944,blocked,normalized_active_window_coverage_below_threshold,Excluded from current publication scope by user direction.
scoped_plant_ecwt_release_20260625T161629Z,plant_ecwt_policy_result_all_plants_normalized_active_window_loaded_year_20260625T161313Z,alaska_excluded_by_scope,eia860:2024:plant:6305,6305,Glennallen,4329,"Copper Valley Elec Assn, Inc",AK,Valdez Cordova,mile post 187 Glenn highway,Glennallen,99588,62.110415,-145.532529,publication_candidate,passes_normalized_active_window_policy,Excluded from current publication scope by user direction.
scoped_plant_ecwt_release_20260625T161629Z,plant_ecwt_policy_result_all_plants_normalized_active_window_loaded_year_20260625T161313Z,alaska_excluded_by_scope,eia860:2024:plant:6306,6306,Valdez,4329,"Copper Valley Elec Assn, Inc",AK,Valdez Cordova,527 West Egan,Valdez,99686,61.130300,-146.364700,publication_candidate,passes_normalized_active_window_policy,Excluded from current publication scope by user direction.
scoped_plant_ecwt_release_20260625T161629Z,plant_ecwt_policy_result_all_plants_normalized_active_window_loaded_year_20260625T161313Z,alaska_excluded_by_scope,eia860:2024:plant:6311,6311,Chevak,221,"Alaska Village Elec Coop, Inc",AK,Bethel,14 Utility Drive,Chevak,99563,61.525297,-165.590152,publication_candidate,passes_normalized_active_window_policy,Excluded from current publication scope by user direction.
scoped_plant_ecwt_release_20260625T161629Z,plant_ecwt_policy_result_all_plants_normalized_active_window_loaded_year_20260625T161313Z,alaska_excluded_by_scope,eia860:2024:plant:6314,6314,Emmonak,221,"Alaska Village Elec Coop, Inc",AK,Kusilvak,07 Utility Drive,Emmonak,99581,62.777694,-164.531517,publication_candidate,passes_normalized_active_window_policy,Excluded from current publication scope by user direction.
scoped_plant_ecwt_release_20260625T161629Z,plant_ecwt_policy_result_all_plants_normalized_active_window_loaded_year_20260625T161313Z,alaska_excluded_by_scope,eia860:2024:plant:6319,6319,Hooper Bay,221,"Alaska Village Elec Coop, Inc",AK,Bethel,08 Utility Drive,Hooper Bay,99604,61.530858,-166.101944,publication_candidate,passes_normalized_active_window_policy,Excluded from current publication scope by user direction.
scoped_plant_ecwt_release_20260625T161629Z,plant_ecwt_policy_result_all_plants_normalized_active_window_loaded_year_20260625T161313Z,alaska_excluded_by_scope,eia860:2024:plant:6323,6323,Kiana,221,"Alaska Village Elec Coop, Inc",AK,Northwest Arctic,01 Utility Drive,Kiana,99749,66.973889,-160.428592,blocked,normalized_active_window_coverage_below_threshold,Excluded from current publication scope by user direction.
scoped_plant_ecwt_release_20260625T161629Z,plant_ecwt_policy_result_all_plants_normalized_active_window_loaded_year_20260625T161313Z,alaska_excluded_by_scope,eia860:2024:plant:6329,6329,Mountain Village,221,"Alaska Village Elec Coop, Inc",AK,Bethel,68 Utility Drive,Mountain Village,99632,62.085569,-163.729072,publication_candidate,passes_normalized_active_window_policy,Excluded from current publication scope by user direction.
scoped_plant_ecwt_release_20260625T161629Z,plant_ecwt_policy_result_all_plants_normalized_active_window_loaded_year_20260625T161313Z,alaska_excluded_by_scope,eia860:2024:plant:6330,6330,Noorvik,221,"Alaska Village Elec Coop, Inc",AK,Northwest Arctic,02 Utility Drive,Noorvik,99763,66.834519,-161.038717,publication_candidate,passes_normalized_active_window_policy,Excluded from current publication scope by user direction.
scoped_plant_ecwt_release_20260625T161629Z,plant_ecwt_policy_result_all_plants_normalized_active_window_loaded_year_20260625T161313Z,alaska_excluded_by_scope,eia860:2024:plant:6333,6333,Nunapitchuk,221,"Alaska Village Elec Coop, Inc",AK,Bethel,09 Utility Drive,Nunapitchuk,99641,60.895880,-162.459756,publication_candidate,passes_normalized_active_window_policy,Excluded from current publication scope by user direction.
scoped_plant_ecwt_release_20260625T161629Z,plant_ecwt_policy_result_all_plants_normalized_active_window_loaded_year_20260625T161313Z,alaska_excluded_by_scope,eia860:2024:plant:6338,6338,St Marys IC,221,"Alaska Village Elec Coop, Inc",AK,Bethel,26 Utility Drive,St. Mary's,99658,62.051525,-163.172567,publication_candidate,passes_normalized_active_window_policy,Excluded from current publication scope by user direction.
scoped_plant_ecwt_release_20260625T161629Z,plant_ecwt_policy_result_all_plants_normalized_active_window_loaded_year_20260625T161313Z,alaska_excluded_by_scope,eia860:2024:plant:6341,6341,Selawik,221,"Alaska Village Elec Coop, Inc",AK,Northwest Arctic,03 Utility Drive,Selawik,99770,66.606778,-160.014808,publication_candidate,passes_normalized_active_window_policy,Excluded from current publication scope by user direction.
scoped_plant_ecwt_release_20260625T161629Z,plant_ecwt_policy_result_all_plants_normalized_active_window_loaded_year_20260625T161313Z,alaska_excluded_by_scope,eia860:2024:plant:6345,6345,Shishmaref,221,"Alaska Village Elec Coop, Inc",AK,Nome,27 Utility Drive,Shishmaref,99772,66.255072,-166.073589,publication_candidate,passes_normalized_active_window_policy,Excluded from current publication scope by user direction.
scoped_plant_ecwt_release_20260625T161629Z,plant_ecwt_policy_result_all_plants_normalized_active_window_loaded_year_20260625T161313Z,alaska_excluded_by_scope,eia860:2024:plant:6348,6348,Togiak,221,"Alaska Village Elec Coop, Inc",AK,Dillingham,10 Utility Drive,Togiak,99678,59.059744,-160.380278,publication_candidate,passes_normalized_active_window_policy,Excluded from current publication scope by user direction.
scoped_plant_ecwt_release_20260625T161629Z,plant_ecwt_policy_result_all_plants_normalized_active_window_loaded_year_20260625T161313Z,alaska_excluded_by_scope,eia860:2024:plant:6555,6555,McGrath,12119,McGrath Light & Power Co,AK,Yukon Koyukuk,10 Mcguire Dr.,McGrath,99627,62.956990,-155.594997,publication_candidate,passes_normalized_active_window_policy,Excluded from current publication scope by user direction.
scoped_plant_ecwt_release_20260625T161629Z,plant_ecwt_policy_result_all_plants_normalized_active_window_loaded_year_20260625T161313Z,alaska_excluded_by_scope,eia860:2024:plant:6559,6559,George M Sullivan Generation Plant 2,3522,Chugach Electric Assn Inc,AK,Anchorage,8700 Starview Drive,Anchorage,99504,61.229713,-149.716744,publication_candidate,passes_normalized_active_window_policy,Excluded from current publication scope by user direction.
scoped_plant_ecwt_release_20260625T161629Z,plant_ecwt_policy_result_all_plants_normalized_active_window_loaded_year_20260625T161313Z,alaska_excluded_by_scope,eia860:2024:plant:6566,6566,Bethel,221,"Alaska Village Elec Coop, Inc",AK,Bethel,1340 Kwethluk Lane,Bethel,99559,60.789700,-161.787778,publication_candidate,passes_normalized_active_window_policy,Excluded from current publication scope by user direction.
scoped_plant_ecwt_release_20260625T161629Z,plant_ecwt_policy_result_all_plants_normalized_active_window_loaded_year_20260625T161313Z,alaska_excluded_by_scope,eia860:2024:plant:6580,6580,Beaver Falls,10210,Ketchikan Public Utilities,AK,Ketchikan Gateway,13110 S. Tongass Ave.,Ketchikan,99901,55.379750,-131.470269,publication_candidate,passes_current_fixed_period_gate,Excluded from current publication scope by user direction.
scoped_plant_ecwt_release_20260625T161629Z,plant_ecwt_policy_result_all_plants_normalized_active_window_loaded_year_20260625T161313Z,alaska_excluded_by_scope,eia860:2024:plant:6581,6581,Silvis,10210,Ketchikan Public Utilities,AK,Ketchikan Gateway,"(unnamed mtn road, remote)",Ketchikan,99901,55.381402,-131.517758,publication_candidate,passes_current_fixed_period_gate,Excluded from current publication scope by user direction.
scoped_plant_ecwt_release_20260625T161629Z,plant_ecwt_policy_result_all_plants_normalized_active_window_loaded_year_20260625T161313Z,alaska_excluded_by_scope,eia860:2024:plant:6637,6637,Yakutat,221,"Alaska Village Elec Coop, Inc",AK,Yakutat,#1 Forest Hwy.,Yakutat,99689,59.544553,-139.724306,publication_candidate,passes_current_fixed_period_gate,Excluded from current publication scope by user direction.
scoped_plant_ecwt_release_20260625T161629Z,plant_ecwt_policy_result_all_plants_normalized_active_window_loaded_year_20260625T161313Z,alaska_excluded_by_scope,eia860:2024:plant:6702,6702,Pelican,29297,Pelican Utility,AK,Skagway Hoonah Angoon,1120 Salmon Way,Pelican,99832,57.957197,-136.220095,publication_candidate,passes_current_fixed_period_gate,Excluded from current publication scope by user direction.
scoped_plant_ecwt_release_20260625T161629Z,plant_ecwt_policy_result_all_plants_normalized_active_window_loaded_year_20260625T161313Z,alaska_excluded_by_scope,eia860:2024:plant:6801,6801,Jarvis Street,17271,City & Borough of Sitka - (AK),AK,Sitka,103 Jarvis Street,Sitka,99835,57.049700,-135.312800,publication_candidate,passes_current_fixed_period_gate,Excluded from current publication scope by user direction.
scoped_plant_ecwt_release_20260625T161629Z,plant_ecwt_policy_result_all_plants_normalized_active_window_loaded_year_20260625T161313Z,alaska_excluded_by_scope,eia860:2024:plant:7042,7042,Humpback Creek,40215,"Cordova Electric Coop, Inc",AK,Valdez Cordova,Orca Inlet-Mile .05 Hmpbck Crk,Cordova,99574,60.612822,-145.679411,publication_candidate,passes_normalized_active_window_policy,Excluded from current publication scope by user direction.
scoped_plant_ecwt_release_20260625T161629Z,plant_ecwt_policy_result_all_plants_normalized_active_window_loaded_year_20260625T161313Z,alaska_excluded_by_scope,eia860:2024:plant:7112,7112,Centennial,12385,Metlakatla Power & Light,AK,Prince of Wales Ketchikan,Walden Point Road,Metlakatla,99926,55.121433,-131.560267,publication_candidate,passes_current_fixed_period_gate,Excluded from current publication scope by user direction.
scoped_plant_ecwt_release_20260625T161629Z,plant_ecwt_policy_result_all_plants_normalized_active_window_loaded_year_20260625T161313Z,alaska_excluded_by_scope,eia860:2024:plant:7168,7168,Chester Lake,12385,Metlakatla Power & Light,AK,Prince of Wales Ketchikan,Walden Point Road,Metlakatla,99926,55.116879,-131.545879,publication_candidate,passes_current_fixed_period_gate,Excluded from current publication scope by user direction.
scoped_plant_ecwt_release_20260625T161629Z,plant_ecwt_policy_result_all_plants_normalized_active_window_loaded_year_20260625T161313Z,alaska_excluded_by_scope,eia860:2024:plant:7169,7169,Northway,219,Alaska Power and Telephone Co,AK,Southeast Fairbanks,Milepost 1314 AK Hwy,Tok,99764,62.961700,-141.937200,publication_candidate,passes_current_fixed_period_gate,Excluded from current publication scope by user direction.
scoped_plant_ecwt_release_20260625T161629Z,plant_ecwt_policy_result_all_plants_normalized_active_window_loaded_year_20260625T161313Z,alaska_excluded_by_scope,eia860:2024:plant:7173,7173,Barrow,1276,"Barrow Utils & Elec Coop, Inc",AK,North Slope,1295 Agvik Street,Barrow,99723,71.292000,-156.778600,blocked,normalized_active_window_coverage_below_threshold,Excluded from current publication scope by user direction.
scoped_plant_ecwt_release_20260625T161629Z,plant_ecwt_policy_result_all_plants_normalized_active_window_loaded_year_20260625T161313Z,alaska_excluded_by_scope,eia860:2024:plant:7174,7174,Gwitchyaa Zhee,7833,Gwitchyaa Zhee Utility Co,AK,Yukon Koyukuk,East 4th Ave,Fort Yukon,99740,66.566287,-145.253052,publication_candidate,passes_current_fixed_period_gate,Excluded from current publication scope by user direction.
scoped_plant_ecwt_release_20260625T161629Z,plant_ecwt_policy_result_all_plants_normalized_active_window_loaded_year_20260625T161313Z,alaska_excluded_by_scope,eia860:2024:plant:7182,7182,Aniak,4959,Aniak Light & Power Co Inc,AK,Bethel,4th Boundary Ave.,Aniak,99557,61.580678,-159.535643,publication_candidate,passes_normalized_active_window_policy,Excluded from current publication scope by user direction.
scoped_plant_ecwt_release_20260625T161629Z,plant_ecwt_policy_result_all_plants_normalized_active_window_loaded_year_20260625T161313Z,alaska_excluded_by_scope,eia860:2024:plant:7183,7183,Newhalen,9188,"I-N-N Electric Coop, Inc",AK,Lake and Peninsula,1001 Fire Lane,Iliamna,99606,59.899054,-154.698735,publication_candidate,passes_normalized_active_window_policy,Excluded from current publication scope by user direction.
scoped_plant_ecwt_release_20260625T161629Z,plant_ecwt_policy_result_all_plants_normalized_active_window_loaded_year_20260625T161313Z,alaska_excluded_by_scope,eia860:2024:plant:7250,7250,Auke Bay,213,Alaska Electric Light & Power Co.,AK,Juneau,12480 Mendenhall Loop Rd.,Juneau,99801,58.387500,-134.644600,publication_candidate,passes_current_fixed_period_gate,Excluded from current publication scope by user direction.
scoped_plant_ecwt_release_20260625T161629Z,plant_ecwt_policy_result_all_plants_normalized_active_window_loaded_year_20260625T161313Z,alaska_excluded_by_scope,eia860:2024:plant:7367,7367,Bradley Lake,19558,Homer Electric Assn Inc,AK,Kenai Peninsula,Bradley Lake,Homer,99603,59.778620,-150.940150,publication_candidate,passes_normalized_active_window_policy,Excluded from current publication scope by user direction.
scoped_plant_ecwt_release_20260625T161629Z,plant_ecwt_policy_result_all_plants_normalized_active_window_loaded_year_20260625T161313Z,alaska_excluded_by_scope,eia860:2024:plant:7414,7414,Thorne Bay Plant,219,Alaska Power and Telephone Co,AK,Prince of Wales Ketchikan,401 7th Street,Craig,99919,55.685860,-132.528920,publication_candidate,passes_current_fixed_period_gate,Excluded from current publication scope by user direction.
scoped_plant_ecwt_release_20260625T161629Z,plant_ecwt_policy_result_all_plants_normalized_active_window_loaded_year_20260625T161313Z,alaska_excluded_by_scope,eia860:2024:plant:7437,7437,Galena Electric Utility,6915,Galena Electric Utility,AK,Yukon Koyukuk,100 Antoski Drive,Galena,99741,64.744170,-156.873600,publication_candidate,passes_normalized_active_window_policy,Excluded from current publication scope by user direction.
scoped_plant_ecwt_release_20260625T161629Z,plant_ecwt_policy_result_all_plants_normalized_active_window_loaded_year_20260625T161313Z,alaska_excluded_by_scope,eia860:2024:plant:7462,7462,Angoon,18963,"Inside Passage Elec Coop, Inc",AK,Skagway Hoonah Angoon,413 Katanook Way,Angoon,99820,57.499166,-134.586140,publication_candidate,passes_current_fixed_period_gate,Excluded from current publication scope by user direction.
scoped_plant_ecwt_release_20260625T161629Z,plant_ecwt_policy_result_all_plants_normalized_active_window_loaded_year_20260625T161313Z,alaska_excluded_by_scope,eia860:2024:plant:7463,7463,Hoonah,18963,"Inside Passage Elec Coop, Inc",AK,Skagway Hoonah Angoon,681 White Alice Rd,Hoonah,99829,58.106432,-135.430740,publication_candidate,passes_current_fixed_period_gate,Excluded from current publication scope by user direction.
scoped_plant_ecwt_release_20260625T161629Z,plant_ecwt_policy_result_all_plants_normalized_active_window_loaded_year_20260625T161313Z,alaska_excluded_by_scope,eia860:2024:plant:7464,7464,Kake,18963,"Inside Passage Elec Coop, Inc",AK,Wrangell Petersburg,Keku Road,Kake,99830,56.962983,-133.922557,publication_candidate,passes_current_fixed_period_gate,Excluded from current publication scope by user direction.
scoped_plant_ecwt_release_20260625T161629Z,plant_ecwt_policy_result_all_plants_normalized_active_window_loaded_year_20260625T161313Z,alaska_excluded_by_scope,eia860:2024:plant:7466,7466,Klawock,18963,"Inside Passage Elec Coop, Inc",AK,Prince of Wales Ketchikan,111 Bayview Street,Ketchikan,99925,55.557778,-132.981389,publication_candidate,passes_current_fixed_period_gate,Excluded from current publication scope by user direction.
scoped_plant_ecwt_release_20260625T161629Z,plant_ecwt_policy_result_all_plants_normalized_active_window_loaded_year_20260625T161313Z,alaska_excluded_by_scope,eia860:2024:plant:7482,7482,NSB Atqasuk Utility,26616,North Slope Borough Power & Light,AK,North Slope,106 Tikigluk,Atqasuk,99791,70.482600,-157.425200,blocked,normalized_active_window_coverage_below_threshold,Excluded from current publication scope by user direction.
scoped_plant_ecwt_release_20260625T161629Z,plant_ecwt_policy_result_all_plants_normalized_active_window_loaded_year_20260625T161313Z,alaska_excluded_by_scope,eia860:2024:plant:7483,7483,NSB Kaktovik Utility,26616,North Slope Borough Power & Light,AK,North Slope,439 Fourth Street,Kaktovik,99747,70.125617,-143.619033,publication_candidate,passes_current_fixed_period_gate,Excluded from current publication scope by user direction.
scoped_plant_ecwt_release_20260625T161629Z,plant_ecwt_policy_result_all_plants_normalized_active_window_loaded_year_20260625T161313Z,alaska_excluded_by_scope,eia860:2024:plant:7484,7484,NSB Nuiqsut Utility,26616,North Slope Borough Power & Light,AK,North Slope,3300 Anaktuvuk Street,Nuiqsut,99789,70.220565,-150.993492,publication_candidate,passes_current_fixed_period_gate,Excluded from current publication scope by user direction.
scoped_plant_ecwt_release_20260625T161629Z,plant_ecwt_policy_result_all_plants_normalized_active_window_loaded_year_20260625T161313Z,alaska_excluded_by_scope,eia860:2024:plant:7485,7485,NSB Point Hope Utility,26616,North Slope Borough Power & Light,AK,North Slope,1737 Qalgi Ave,Pt Hope,99766,68.348424,-166.737211,blocked,normalized_active_window_coverage_below_threshold,Excluded from current publication scope by user direction.
scoped_plant_ecwt_release_20260625T161629Z,plant_ecwt_policy_result_all_plants_normalized_active_window_loaded_year_20260625T161313Z,alaska_excluded_by_scope,eia860:2024:plant:7486,7486,NSB Point Lay Utility,26616,North Slope Borough Power & Light,AK,North Slope,109 Tuttunniaqvik Street,PT Lay,99759,69.740833,-163.005833,blocked,normalized_active_window_coverage_below_threshold,Excluded from current publication scope by user direction.
scoped_plant_ecwt_release_20260625T161629Z,plant_ecwt_policy_result_all_plants_normalized_active_window_loaded_year_20260625T161313Z,alaska_excluded_by_scope,eia860:2024:plant:7487,7487,NSB Anaktuvuk Pass,26616,North Slope Borough Power & Light,AK,North Slope,1024 Summer,Anaktuvuk Pass,99721,68.137950,-151.741017,publication_candidate,passes_normalized_active_window_policy,Excluded from current publication scope by user direction.
scoped_plant_ecwt_release_20260625T161629Z,plant_ecwt_policy_result_all_plants_normalized_active_window_loaded_year_20260625T161313Z,alaska_excluded_by_scope,eia860:2024:plant:7488,7488,NSB Wainwright Utility,26616,North Slope Borough Power & Light,AK,North Slope,117 Summer Rd,Wainwright,99782,70.642877,-160.020461,blocked,normalized_active_window_coverage_below_threshold,Excluded from current publication scope by user direction.
scoped_plant_ecwt_release_20260625T161629Z,plant_ecwt_policy_result_all_plants_normalized_active_window_loaded_year_20260625T161313Z,alaska_excluded_by_scope,eia860:2024:plant:7493,7493,King Cove,9897,City of King Cove,AK,Aleutians East,10000 Windy Walkway,King Cove,99612,55.048170,-162.293230,publication_candidate,passes_normalized_active_window_policy,Excluded from current publication scope by user direction.
scoped_plant_ecwt_release_20260625T161629Z,plant_ecwt_policy_result_all_plants_normalized_active_window_loaded_year_20260625T161313Z,alaska_excluded_by_scope,eia860:2024:plant:7502,7502,Dutch Harbor,19454,City of Unalaska - (AK),AK,Aleutians West,1732 East Point Road,Dutch Harbor,99692,53.892459,-166.538185,publication_candidate,passes_normalized_active_window_policy,Excluded from current publication scope by user direction.
scoped_plant_ecwt_release_20260625T161629Z,plant_ecwt_policy_result_all_plants_normalized_active_window_loaded_year_20260625T161313Z,alaska_excluded_by_scope,eia860:2024:plant:7503,7503,Unalaska Power Module,19454,City of Unalaska - (AK),AK,Aleutians West,1035 East Broadway,Unalaska,99685,53.863993,-166.512591,publication_candidate,passes_normalized_active_window_policy,Excluded from current publication scope by user direction.
scoped_plant_ecwt_release_20260625T161629Z,plant_ecwt_policy_result_all_plants_normalized_active_window_loaded_year_20260625T161313Z,alaska_excluded_by_scope,eia860:2024:plant:7723,7723,Nymans Plant Microgrid,10433,Kodiak Electric Assn Inc,AK,Kodiak Island,Seafarer Dr. Building 12,Kodiak,99619,57.731608,-152.507044,publication_candidate,passes_normalized_active_window_policy,Excluded from current publication scope by user direction.
scoped_plant_ecwt_release_20260625T161629Z,plant_ecwt_policy_result_all_plants_normalized_active_window_loaded_year_20260625T161313Z,alaska_excluded_by_scope,eia860:2024:plant:7751,7751,Goat Lake Hydro,219,Alaska Power and Telephone Co,AK,Skagway Hoonah Angoon,110 Spring St,Skagway,99840,59.535700,-135.212300,publication_candidate,passes_current_fixed_period_gate,Excluded from current publication scope by user direction.
scoped_plant_ecwt_release_20260625T161629Z,plant_ecwt_policy_result_all_plants_normalized_active_window_loaded_year_20260625T161313Z,alaska_excluded_by_scope,eia860:2024:plant:7752,7752,Black Bear Lake,219,Alaska Power and Telephone Co,AK,Prince of Wales Ketchikan,401 7th Street,Craig,99921,55.476472,-133.147720,publication_candidate,passes_current_fixed_period_gate,Excluded from current publication scope by user direction.
scoped_plant_ecwt_release_20260625T161629Z,plant_ecwt_policy_result_all_plants_normalized_active_window_loaded_year_20260625T161313Z,alaska_excluded_by_scope,eia860:2024:plant:7841,7841,Valdez Cogen,4329,"Copper Valley Elec Assn, Inc",AK,Valdez Cordova,2.5 mile dayville road,Valdez,99686,61.083900,-146.252900,publication_candidate,passes_normalized_active_window_policy,Excluded from current publication scope by user direction.
scoped_plant_ecwt_release_20260625T161629Z,plant_ecwt_policy_result_all_plants_normalized_active_window_loaded_year_20260625T161313Z,alaska_excluded_by_scope,eia860:2024:plant:7862,7862,Power Creek,40215,"Cordova Electric Coop, Inc",AK,Valdez Cordova,Mile 7 Power Creek Rd,Cordova,99574,60.588686,-145.604539,publication_candidate,passes_normalized_active_window_policy,Excluded from current publication scope by user direction.
scoped_plant_ecwt_release_20260625T161629Z,plant_ecwt_policy_result_all_plants_normalized_active_window_loaded_year_20260625T161313Z,alaska_excluded_by_scope,eia860:2024:plant:50308,50308,Utility Plants Section,56389,Doyon Utilities - Ft. Wainwright,AK,Fairbanks North Star,Bldg 3595,Fort Wainwright,99703,64.825601,-147.648627,publication_candidate,passes_normalized_active_window_policy,Excluded from current publication scope by user direction.
scoped_plant_ecwt_release_20260625T161629Z,plant_ecwt_policy_result_all_plants_normalized_active_window_loaded_year_20260625T161313Z,alaska_excluded_by_scope,eia860:2024:plant:50392,50392,Eielson AFB Central Heat & Power Plant,22199,U S Air Force-Eielson AFB,AK,Fairbanks North Star,2676 Industrail Ave,Eielson AFB,99702,64.671410,-147.075988,publication_candidate,passes_normalized_active_window_policy,Excluded from current publication scope by user direction.
scoped_plant_ecwt_release_20260625T161629Z,plant_ecwt_policy_result_all_plants_normalized_active_window_loaded_year_20260625T161313Z,alaska_excluded_by_scope,eia860:2024:plant:50711,50711,University of Alaska Fairbanks,19511,University of Alaska,AK,Fairbanks North Star,802 Alumni drive,Fairbanks,99775,64.854171,-147.822075,publication_candidate,passes_normalized_active_window_policy,Excluded from current publication scope by user direction.
scoped_plant_ecwt_release_20260625T161629Z,plant_ecwt_policy_result_all_plants_normalized_active_window_loaded_year_20260625T161313Z,alaska_excluded_by_scope,eia860:2024:plant:52184,52184,Tesoro Kenai Cogeneration Plant,18617,Tesoro Alaska Company LLC,AK,Kenai Peninsula,54741 Tesoro Road,Kenai,99611,60.677000,-151.381500,publication_candidate,passes_normalized_active_window_policy,Excluded from current publication scope by user direction.
scoped_plant_ecwt_release_20260625T161629Z,plant_ecwt_policy_result_all_plants_normalized_active_window_loaded_year_20260625T161313Z,alaska_excluded_by_scope,eia860:2024:plant:54305,54305,Westward Seafoods,20523,Westward Seafoods Inc,AK,Aleutians West,One Mile Captains Bay rd.,Dutch Harbor,99692,53.858508,-166.552880,publication_candidate,passes_normalized_active_window_policy,Excluded from current publication scope by user direction.
scoped_plant_ecwt_release_20260625T161629Z,plant_ecwt_policy_result_all_plants_normalized_active_window_loaded_year_20260625T161313Z,alaska_excluded_by_scope,eia860:2024:plant:54422,54422,Unisea G 2,19553,Unisea Inc,AK,Aleutians West,Salmon Way,Dutch Harbor,99692,53.879600,-166.553200,publication_candidate,passes_normalized_active_window_policy,Excluded from current publication scope by user direction.
scoped_plant_ecwt_release_20260625T161629Z,plant_ecwt_policy_result_all_plants_normalized_active_window_loaded_year_20260625T161313Z,alaska_excluded_by_scope,eia860:2024:plant:54452,54452,Nutrien Kenai Nitrogen Operations,179,Nutrien US LLC,AK,Kenai Peninsula,Mile 21.5 Kenai Spur Highway,Kenai,99611,60.673200,-151.378400,publication_candidate,passes_normalized_active_window_policy,Excluded from current publication scope by user direction.
scoped_plant_ecwt_release_20260625T161629Z,plant_ecwt_policy_result_all_plants_normalized_active_window_loaded_year_20260625T161313Z,alaska_excluded_by_scope,eia860:2024:plant:54834,54834,Fort Greely Power Plant,19272,Doyon Utilities - Fort Greely,AK,Southeast Fairbanks,606 Arctic Ave.,Delta Jct,99731,63.973572,-145.716581,publication_candidate,passes_normalized_active_window_policy,Excluded from current publication scope by user direction.
scoped_plant_ecwt_release_20260625T161629Z,plant_ecwt_policy_result_all_plants_normalized_active_window_loaded_year_20260625T161313Z,alaska_excluded_by_scope,eia860:2024:plant:55966,55966,Nikiski Combined Cycle,19558,Homer Electric Assn Inc,AK,Kenai Peninsula,Milepost 21.4 Spur Highway,Nikiski,99635,60.676539,-151.377713,publication_candidate,passes_normalized_active_window_policy,Excluded from current publication scope by user direction.
scoped_plant_ecwt_release_20260625T161629Z,plant_ecwt_policy_result_all_plants_normalized_active_window_loaded_year_20260625T161313Z,alaska_excluded_by_scope,eia860:2024:plant:56146,56146,False Island,219,Alaska Power and Telephone Co,AK,Prince of Wales Ketchikan,"Lot 6, Marine Industrial Park",Thorne Bay,99919,55.489180,-133.134500,publication_candidate,passes_current_fixed_period_gate,Excluded from current publication scope by user direction.
scoped_plant_ecwt_release_20260625T161629Z,plant_ecwt_policy_result_all_plants_normalized_active_window_loaded_year_20260625T161313Z,alaska_excluded_by_scope,eia860:2024:plant:56147,56147,Viking,219,Alaska Power and Telephone Co,AK,Prince of Wales Ketchikan,Mile 6 Craig/Klawock Highway,Craig,99921,55.540708,-133.102344,publication_candidate,passes_current_fixed_period_gate,Excluded from current publication scope by user direction.
scoped_plant_ecwt_release_20260625T161629Z,plant_ecwt_policy_result_all_plants_normalized_active_window_loaded_year_20260625T161313Z,alaska_excluded_by_scope,eia860:2024:plant:56265,56265,South Fork,219,Alaska Power and Telephone Co,AK,Prince of Wales Ketchikan,Mile 8 Blackbear Lake Rd,Klawock,99925,55.563333,-132.891111,publication_candidate,passes_current_fixed_period_gate,Excluded from current publication scope by user direction.
scoped_plant_ecwt_release_20260625T161629Z,plant_ecwt_policy_result_all_plants_normalized_active_window_loaded_year_20260625T161313Z,alaska_excluded_by_scope,eia860:2024:plant:56325,56325,Delta Power,7353,Golden Valley Elec Assn Inc,AK,Southeast Fairbanks,1115 Richardson Highway,Delta Junction,99737,64.028056,-145.719444,publication_candidate,passes_normalized_active_window_policy,Excluded from current publication scope by user direction.
scoped_plant_ecwt_release_20260625T161629Z,plant_ecwt_policy_result_all_plants_normalized_active_window_loaded_year_20260625T161313Z,alaska_excluded_by_scope,eia860:2024:plant:56542,56542,Kasidaya Creek Hydro,219,Alaska Power and Telephone Co,AK,Skagway Hoonah Angoon,Near Kasidaya Creek,Skagway,99840,59.407200,-135.340800,publication_candidate,passes_current_fixed_period_gate,Excluded from current publication scope by user direction.
scoped_plant_ecwt_release_20260625T161629Z,plant_ecwt_policy_result_all_plants_normalized_active_window_loaded_year_20260625T161313Z,alaska_excluded_by_scope,eia860:2024:plant:57036,57036,Southcentral Power Project,3522,Chugach Electric Assn Inc,AK,Anchorage,5601 Electron Dr.,Anchorage,99519,61.167417,-149.905304,publication_candidate,passes_normalized_active_window_policy,Excluded from current publication scope by user direction.
scoped_plant_ecwt_release_20260625T161629Z,plant_ecwt_policy_result_all_plants_normalized_active_window_loaded_year_20260625T161313Z,alaska_excluded_by_scope,eia860:2024:plant:57051,57051,Noatak,221,"Alaska Village Elec Coop, Inc",AK,Northwest Arctic,PO Box 89,Noatak,99761,67.570931,-162.965728,blocked,normalized_active_window_coverage_below_threshold,Excluded from current publication scope by user direction.
scoped_plant_ecwt_release_20260625T161629Z,plant_ecwt_policy_result_all_plants_normalized_active_window_loaded_year_20260625T161313Z,alaska_excluded_by_scope,eia860:2024:plant:57052,57052,Savoonga,221,"Alaska Village Elec Coop, Inc",AK,Nome,PO Box 40,Savoonga,99769,63.695267,-170.475661,publication_candidate,passes_normalized_active_window_policy,Excluded from current publication scope by user direction.
scoped_plant_ecwt_release_20260625T161629Z,plant_ecwt_policy_result_all_plants_normalized_active_window_loaded_year_20260625T161313Z,alaska_excluded_by_scope,eia860:2024:plant:57053,57053,Alakanuk,221,"Alaska Village Elec Coop, Inc",AK,Kusilvak,PO Box 167,Alakanuk,99554,62.683300,-164.654400,publication_candidate,passes_normalized_active_window_policy,Excluded from current publication scope by user direction.
scoped_plant_ecwt_release_20260625T161629Z,plant_ecwt_policy_result_all_plants_normalized_active_window_loaded_year_20260625T161313Z,alaska_excluded_by_scope,eia860:2024:plant:57054,57054,Upper Kalskag,221,"Alaska Village Elec Coop, Inc",AK,Bethel,PO Box 80,Upper Kalskag,99607,61.526858,-160.348128,publication_candidate,passes_normalized_active_window_policy,Excluded from current publication scope by user direction.
scoped_plant_ecwt_release_20260625T161629Z,plant_ecwt_policy_result_all_plants_normalized_active_window_loaded_year_20260625T161313Z,alaska_excluded_by_scope,eia860:2024:plant:57055,57055,Stebbins,221,"Alaska Village Elec Coop, Inc",AK,Nome,PO Box 22,Stebbins,99671,63.521047,-162.286322,publication_candidate,passes_normalized_active_window_policy,Excluded from current publication scope by user direction.
scoped_plant_ecwt_release_20260625T161629Z,plant_ecwt_policy_result_all_plants_normalized_active_window_loaded_year_20260625T161313Z,alaska_excluded_by_scope,eia860:2024:plant:57056,57056,Scammon Bay,221,"Alaska Village Elec Coop, Inc",AK,Kusilvak,PO Box 90,Scammon Bay,99662,61.843036,-165.581497,publication_candidate,passes_normalized_active_window_policy,Excluded from current publication scope by user direction.
scoped_plant_ecwt_release_20260625T161629Z,plant_ecwt_policy_result_all_plants_normalized_active_window_loaded_year_20260625T161313Z,alaska_excluded_by_scope,eia860:2024:plant:57057,57057,Quinhagak,221,"Alaska Village Elec Coop, Inc",AK,Bethel,PO Box 90,Quinhagak,99655,59.747436,-161.910647,publication_candidate,passes_normalized_active_window_policy,Excluded from current publication scope by user direction.
scoped_plant_ecwt_release_20260625T161629Z,plant_ecwt_policy_result_all_plants_normalized_active_window_loaded_year_20260625T161313Z,alaska_excluded_by_scope,eia860:2024:plant:57058,57058,Pilot Station,221,"Alaska Village Elec Coop, Inc",AK,Kusilvak,PO Box 5040,Pilot Station,99650,61.936456,-162.880706,publication_candidate,passes_normalized_active_window_policy,Excluded from current publication scope by user direction.
scoped_plant_ecwt_release_20260625T161629Z,plant_ecwt_policy_result_all_plants_normalized_active_window_loaded_year_20260625T161313Z,alaska_excluded_by_scope,eia860:2024:plant:57059,57059,Koyuk,221,"Alaska Village Elec Coop, Inc",AK,Nome,PO Box 29,Koyuk,99753,64.932089,-161.167103,publication_candidate,passes_normalized_active_window_policy,Excluded from current publication scope by user direction.
scoped_plant_ecwt_release_20260625T161629Z,plant_ecwt_policy_result_all_plants_normalized_active_window_loaded_year_20260625T161313Z,alaska_excluded_by_scope,eia860:2024:plant:57060,57060,Elim,221,"Alaska Village Elec Coop, Inc",AK,Nome,PO Box 39009,Elim,99739,64.616558,-162.263717,publication_candidate,passes_normalized_active_window_policy,Excluded from current publication scope by user direction.
scoped_plant_ecwt_release_20260625T161629Z,plant_ecwt_policy_result_all_plants_normalized_active_window_loaded_year_20260625T161313Z,alaska_excluded_by_scope,eia860:2024:plant:57061,57061,St. Michael,221,"Alaska Village Elec Coop, Inc",AK,Nome,PO Box 59070,St. Michael,99659,63.477500,-162.038300,publication_candidate,passes_normalized_active_window_policy,Excluded from current publication scope by user direction.
scoped_plant_ecwt_release_20260625T161629Z,plant_ecwt_policy_result_all_plants_normalized_active_window_loaded_year_20260625T161313Z,alaska_excluded_by_scope,eia860:2024:plant:57062,57062,Gambell,221,"Alaska Village Elec Coop, Inc",AK,Nome,PO Box 189,Gambell,99742,63.777058,-171.712439,publication_candidate,passes_normalized_active_window_policy,Excluded from current publication scope by user direction.
scoped_plant_ecwt_release_20260625T161629Z,plant_ecwt_policy_result_all_plants_normalized_active_window_loaded_year_20260625T161313Z,alaska_excluded_by_scope,eia860:2024:plant:57063,57063,Shungnak,221,"Alaska Village Elec Coop, Inc",AK,Northwest Arctic,PO Box 59,Shungnak,99773,66.888114,-157.140206,publication_candidate,passes_normalized_active_window_policy,Excluded from current publication scope by user direction.
scoped_plant_ecwt_release_20260625T161629Z,plant_ecwt_policy_result_all_plants_normalized_active_window_loaded_year_20260625T161313Z,alaska_excluded_by_scope,eia860:2024:plant:57064,57064,Kotlik,221,"Alaska Village Elec Coop, Inc",AK,Kusilvak,PO Box 20268,Kotlik,99620,63.032150,-163.553106,publication_candidate,passes_normalized_active_window_policy,Excluded from current publication scope by user direction.
scoped_plant_ecwt_release_20260625T161629Z,plant_ecwt_policy_result_all_plants_normalized_active_window_loaded_year_20260625T161313Z,alaska_excluded_by_scope,eia860:2024:plant:57065,57065,Kivalina,221,"Alaska Village Elec Coop, Inc",AK,Northwest Arctic,PO Box 50079,Kivalina,99750,67.726644,-164.538447,blocked,normalized_active_window_coverage_below_threshold,Excluded from current publication scope by user direction.
scoped_plant_ecwt_release_20260625T161629Z,plant_ecwt_policy_result_all_plants_normalized_active_window_loaded_year_20260625T161313Z,alaska_excluded_by_scope,eia860:2024:plant:57066,57066,Kasigluk,221,"Alaska Village Elec Coop, Inc",AK,Bethel,PO Box 19 Akula Heights,Kasigluk,99609,60.873100,-162.519700,publication_candidate,passes_normalized_active_window_policy,Excluded from current publication scope by user direction.
scoped_plant_ecwt_release_20260625T161629Z,plant_ecwt_policy_result_all_plants_normalized_active_window_loaded_year_20260625T161313Z,alaska_excluded_by_scope,eia860:2024:plant:57067,57067,Toksook Bay,221,"Alaska Village Elec Coop, Inc",AK,Bethel,"Nelson Island, PO Box 37008",Toksook Bay,99637,60.530142,-165.108575,publication_candidate,passes_normalized_active_window_policy,Excluded from current publication scope by user direction.
scoped_plant_ecwt_release_20260625T161629Z,plant_ecwt_policy_result_all_plants_normalized_active_window_loaded_year_20260625T161313Z,alaska_excluded_by_scope,eia860:2024:plant:57085,57085,Lake Dorothy Hydroelectric Project,213,Alaska Electric Light & Power Co.,AK,Juneau,Lake Dorothy,Juneau,99801,58.232500,-134.053300,publication_candidate,passes_current_fixed_period_gate,Excluded from current publication scope by user direction.
scoped_plant_ecwt_release_20260625T161629Z,plant_ecwt_policy_result_all_plants_normalized_active_window_loaded_year_20260625T161313Z,alaska_excluded_by_scope,eia860:2024:plant:57187,57187,Pillar Mountain Wind Project Microgrid,10433,Kodiak Electric Assn Inc,AK,Kodiak Island,Pillar Mountain,Kodiak,99615,57.786900,-152.440600,publication_candidate,passes_normalized_active_window_policy,Excluded from current publication scope by user direction.
scoped_plant_ecwt_release_20260625T161629Z,plant_ecwt_policy_result_all_plants_normalized_active_window_loaded_year_20260625T161313Z,alaska_excluded_by_scope,eia860:2024:plant:57206,57206,Soldotna,19558,Homer Electric Assn Inc,AK,Kenai Peninsula,41925 Sterling Highway,Soldotna,99669,60.499444,-150.997222,publication_candidate,passes_normalized_active_window_policy,Excluded from current publication scope by user direction.
scoped_plant_ecwt_release_20260625T161629Z,plant_ecwt_policy_result_all_plants_normalized_active_window_loaded_year_20260625T161313Z,alaska_excluded_by_scope,eia860:2024:plant:57583,57583,Battery Energy Storage System,7353,Golden Valley Elec Assn Inc,AK,Fairbanks North Star,925 Bidwell Ave & 901 Bidwell,Fairbanks,99701,64.816700,-147.725000,publication_candidate,passes_normalized_active_window_policy,Excluded from current publication scope by user direction.
scoped_plant_ecwt_release_20260625T161629Z,plant_ecwt_policy_result_all_plants_normalized_active_window_loaded_year_20260625T161313Z,alaska_excluded_by_scope,eia860:2024:plant:57935,57935,Eva Creek Wind,7353,Golden Valley Elec Assn Inc,AK,Denali,Mile Post 10 Ferry Road,Healy,99743,64.058333,-148.900000,publication_candidate,passes_normalized_active_window_policy,Excluded from current publication scope by user direction.
scoped_plant_ecwt_release_20260625T161629Z,plant_ecwt_policy_result_all_plants_normalized_active_window_loaded_year_20260625T161313Z,alaska_excluded_by_scope,eia860:2024:plant:58117,58117,TNSG South Plant,57494,TDX North Slope Generating Inc.,AK,North Slope,100 Power Plant Way,Deadhorse,99374,70.200000,-148.466667,publication_candidate,passes_current_fixed_period_gate,Excluded from current publication scope by user direction.
scoped_plant_ecwt_release_20260625T161629Z,plant_ecwt_policy_result_all_plants_normalized_active_window_loaded_year_20260625T161313Z,alaska_excluded_by_scope,eia860:2024:plant:58278,58278,TNSG North Plant,57494,TDX North Slope Generating Inc.,AK,North Slope,100 Power Plant Way,Deadhorse,99374,70.235278,-148.383611,publication_candidate,passes_current_fixed_period_gate,Excluded from current publication scope by user direction.
scoped_plant_ecwt_release_20260625T161629Z,plant_ecwt_policy_result_all_plants_normalized_active_window_loaded_year_20260625T161313Z,alaska_excluded_by_scope,eia860:2024:plant:58380,58380,JBER Landfill Gas Power Plant,58368,"Doyon Utilities, LLC",AK,Anchorage,58900 Davis Highway,Anchorage,99505,61.286000,-149.610000,publication_candidate,passes_normalized_active_window_policy,Excluded from current publication scope by user direction.
scoped_plant_ecwt_release_20260625T161629Z,plant_ecwt_policy_result_all_plants_normalized_active_window_loaded_year_20260625T161313Z,alaska_excluded_by_scope,eia860:2024:plant:58405,58405,ESS Battery Microgrid,10433,Kodiak Electric Assn Inc,AK,Kodiak Island,891 Pillar Mountain Road,Kodiak,99615,57.799167,-152.404167,publication_candidate,passes_normalized_active_window_policy,Excluded from current publication scope by user direction.
scoped_plant_ecwt_release_20260625T161629Z,plant_ecwt_policy_result_all_plants_normalized_active_window_loaded_year_20260625T161313Z,alaska_excluded_by_scope,eia860:2024:plant:58425,58425,Fire Island Wind,58422,Fire Island Wind LLC,AK,Anchorage,"725 E Fireweed Ln, Suite 800",Anchorage,99503,61.130000,-150.243611,publication_candidate,passes_normalized_active_window_policy,Excluded from current publication scope by user direction.
scoped_plant_ecwt_release_20260625T161629Z,plant_ecwt_policy_result_all_plants_normalized_active_window_loaded_year_20260625T161313Z,alaska_excluded_by_scope,eia860:2024:plant:58511,58511,Delta Wind Farm,58488,Alaska Environmental Power,AK,Southeast Fairbanks,Mile 1417.5 Alaska Hwy,Delta Junction,99737,64.013889,-145.596667,publication_candidate,passes_normalized_active_window_policy,Excluded from current publication scope by user direction.
scoped_plant_ecwt_release_20260625T161629Z,plant_ecwt_policy_result_all_plants_normalized_active_window_loaded_year_20260625T161313Z,alaska_excluded_by_scope,eia860:2024:plant:58977,58977,Whitman,10210,Ketchikan Public Utilities,AK,Ketchikan Gateway,298 Powerhouse Road,Ketchikan,99901,55.328056,-131.530833,publication_candidate,passes_current_fixed_period_gate,Excluded from current publication scope by user direction.
scoped_plant_ecwt_release_20260625T161629Z,plant_ecwt_policy_result_all_plants_normalized_active_window_loaded_year_20260625T161313Z,alaska_excluded_by_scope,eia860:2024:plant:58982,58982,Allison Creek Hydro,4329,"Copper Valley Elec Assn, Inc",AK,Valdez Cordova,Mile 1 Dayville Rd,Valdez,99686,61.084444,-146.353333,publication_candidate,passes_normalized_active_window_policy,Excluded from current publication scope by user direction.
scoped_plant_ecwt_release_20260625T161629Z,plant_ecwt_policy_result_all_plants_normalized_active_window_loaded_year_20260625T161313Z,alaska_excluded_by_scope,eia860:2024:plant:58989,58989,Eklutna Generation Station,11824,Matanuska Electric Assn Inc,AK,Anchorage,28705 Denaina Elders Road,Chugiak,99567,61.457778,-149.351389,publication_candidate,passes_normalized_active_window_policy,Excluded from current publication scope by user direction.
scoped_plant_ecwt_release_20260625T161629Z,plant_ecwt_policy_result_all_plants_normalized_active_window_loaded_year_20260625T161313Z,alaska_excluded_by_scope,eia860:2024:plant:59027,59027,Mahoney Lake Hydroelectric,60223,Ketchikan Electric Company,AK,Ketchikan Gateway,,Ketchikan,99901,55.419444,-131.537778,publication_candidate,passes_current_fixed_period_gate,Excluded from current publication scope by user direction.
scoped_plant_ecwt_release_20260625T161629Z,plant_ecwt_policy_result_all_plants_normalized_active_window_loaded_year_20260625T161313Z,alaska_excluded_by_scope,eia860:2024:plant:59037,59037,Hiilangaay Hydro,60222,"Haida Energy, Inc.",AK,Prince of Wales Ketchikan,Unnamed Road,Hydaburg,99922,55.217254,-132.610030,publication_candidate,passes_current_fixed_period_gate,Excluded from current publication scope by user direction.
scoped_plant_ecwt_release_20260625T161629Z,plant_ecwt_policy_result_all_plants_normalized_active_window_loaded_year_20260625T161313Z,alaska_excluded_by_scope,eia860:2024:plant:59793,59793,Industrial Plant,213,Alaska Electric Light & Power Co.,AK,Juneau,2500 Barrett Avenue,Juneau,99801,58.367635,-134.608020,publication_candidate,passes_current_fixed_period_gate,Excluded from current publication scope by user direction.
scoped_plant_ecwt_release_20260625T161629Z,plant_ecwt_policy_result_all_plants_normalized_active_window_loaded_year_20260625T161313Z,alaska_excluded_by_scope,eia860:2024:plant:60243,60243,Ambler,221,"Alaska Village Elec Coop, Inc",AK,Northwest Arctic,60 Utility Drive,Ambler,99786,67.087980,-157.856719,blocked,normalized_active_window_coverage_below_threshold,Excluded from current publication scope by user direction.
scoped_plant_ecwt_release_20260625T161629Z,plant_ecwt_policy_result_all_plants_normalized_active_window_loaded_year_20260625T161313Z,alaska_excluded_by_scope,eia860:2024:plant:60244,60244,Marshall,221,"Alaska Village Elec Coop, Inc",AK,Kusilvak,50 Utility Drive,Marshall,99585,61.878186,-162.085147,publication_candidate,passes_normalized_active_window_policy,Excluded from current publication scope by user direction.
scoped_plant_ecwt_release_20260625T161629Z,plant_ecwt_policy_result_all_plants_normalized_active_window_loaded_year_20260625T161313Z,alaska_excluded_by_scope,eia860:2024:plant:60245,60245,New Stuyahok,221,"Alaska Village Elec Coop, Inc",AK,Dillingham,64 Utility Drive,New Stuyahok,99636,59.448358,-157.325528,publication_candidate,passes_normalized_active_window_policy,Excluded from current publication scope by user direction.
scoped_plant_ecwt_release_20260625T161629Z,plant_ecwt_policy_result_all_plants_normalized_active_window_loaded_year_20260625T161313Z,alaska_excluded_by_scope,eia860:2024:plant:60250,60250,Swampy Acres Microgrid,10433,Kodiak Electric Assn Inc,AK,Kodiak Island,Approx 4 MIles SW of Downtown,Kodiak,99615,57.775560,-152.480280,publication_candidate,passes_normalized_active_window_policy,Excluded from current publication scope by user direction.
scoped_plant_ecwt_release_20260625T161629Z,plant_ecwt_policy_result_all_plants_normalized_active_window_loaded_year_20260625T161313Z,alaska_excluded_by_scope,eia860:2024:plant:60260,60260,Brevig Mission,221,"Alaska Village Elec Coop, Inc",AK,Nome,36 Utility Drive,Brevig Mission,99785,65.331716,-166.479506,publication_candidate,passes_normalized_active_window_policy,Excluded from current publication scope by user direction.
scoped_plant_ecwt_release_20260625T161629Z,plant_ecwt_policy_result_all_plants_normalized_active_window_loaded_year_20260625T161313Z,alaska_excluded_by_scope,eia860:2024:plant:60563,60563,Flywheel Energy Storage System Microgrid,10433,Kodiak Electric Assn Inc,AK,Kodiak Island,Gibson Cove,Kodiak,99615,57.780114,-152.443783,publication_candidate,passes_normalized_active_window_policy,Excluded from current publication scope by user direction.
scoped_plant_ecwt_release_20260625T161629Z,plant_ecwt_policy_result_all_plants_normalized_active_window_loaded_year_20260625T161313Z,alaska_excluded_by_scope,eia860:2024:plant:60588,60588,Sweetheart Lake Hydroelectric Facility,60349,"Juneau Hydropower, Inc",AK,Juneau,Gilbert Bay,Juneau,99801,57.944900,-133.686700,publication_candidate,passes_current_fixed_period_gate,Excluded from current publication scope by user direction.
scoped_plant_ecwt_release_20260625T161629Z,plant_ecwt_policy_result_all_plants_normalized_active_window_loaded_year_20260625T161313Z,alaska_excluded_by_scope,eia860:2024:plant:60814,60814,7-Mile Ridge Wind Project,219,Alaska Power and Telephone Co,AK,Southeast Fairbanks,TBD,Tok,99780,63.210689,-143.247156,publication_candidate,passes_current_fixed_period_gate,Excluded from current publication scope by user direction.
scoped_plant_ecwt_release_20260625T161629Z,plant_ecwt_policy_result_all_plants_normalized_active_window_loaded_year_20260625T161313Z,alaska_excluded_by_scope,eia860:2024:plant:61166,61166,Tyee Lake Hydroelectric Facility,60123,Southeast Alaska Power Agency,AK,Wrangell Petersburg,Bradfield Canal,Wrangell,99929,56.216403,-131.504344,publication_candidate,passes_current_fixed_period_gate,Excluded from current publication scope by user direction.
scoped_plant_ecwt_release_20260625T161629Z,plant_ecwt_policy_result_all_plants_normalized_active_window_loaded_year_20260625T161313Z,alaska_excluded_by_scope,eia860:2024:plant:61684,61684,Klawock Power Generation Station,219,Alaska Power and Telephone Co,AK,Prince of Wales Ketchikan,6698 Klawock - Hollis Highway,Klawock,99925,55.553197,-133.085350,publication_candidate,passes_current_fixed_period_gate,Excluded from current publication scope by user direction.
scoped_plant_ecwt_release_20260625T161629Z,plant_ecwt_policy_result_all_plants_normalized_active_window_loaded_year_20260625T161313Z,alaska_excluded_by_scope,eia860:2024:plant:61685,61685,Slana Generating Station,219,Alaska Power and Telephone Co,AK,Southeast Fairbanks,Mile 1 Nabesna Road,Slana,99586,62.592756,-143.588869,publication_candidate,passes_current_fixed_period_gate,Excluded from current publication scope by user direction.
scoped_plant_ecwt_release_20260625T161629Z,plant_ecwt_policy_result_all_plants_normalized_active_window_loaded_year_20260625T161313Z,alaska_excluded_by_scope,eia860:2024:plant:62714,62714,Eyak Service Center BESS,40215,"Cordova Electric Coop, Inc",AK,Valdez Cordova,308 LeFevrre,Cordova,99574,60.540470,-145.740790,publication_candidate,passes_normalized_active_window_policy,Excluded from current publication scope by user direction.
scoped_plant_ecwt_release_20260625T161629Z,plant_ecwt_policy_result_all_plants_normalized_active_window_loaded_year_20260625T161313Z,alaska_excluded_by_scope,eia860:2024:plant:65767,65767,Gustavus,219,Alaska Power and Telephone Co,AK,Skagway Hoonah Angoon,5 Gustavus Road,Gustavus,99826,58.419497,-135.707370,publication_candidate,passes_current_fixed_period_gate,Excluded from current publication scope by user direction.
scoped_plant_ecwt_release_20260625T161629Z,plant_ecwt_policy_result_all_plants_normalized_active_window_loaded_year_20260625T161313Z,alaska_excluded_by_scope,eia860:2024:plant:66887,66887,Houston Solar,65807,"Energy 49, LLC",AK,Matanuska Susitna,Hawk Lane,Houston,99694,61.590000,-149.790000,publication_candidate,passes_normalized_active_window_policy,Excluded from current publication scope by user direction.
scoped_plant_ecwt_release_20260625T161629Z,plant_ecwt_policy_result_all_plants_normalized_active_window_loaded_year_20260625T161313Z,alaska_excluded_by_scope,eia860:2024:plant:68611,68611,International Battery Substation (IBSS),3522,Chugach Electric Assn Inc,AK,Anchorage,6000 Electron Drive,Anchorage,99518,61.169886,-149.913071,publication_candidate,passes_normalized_active_window_policy,Excluded from current publication scope by user direction.
scoped_plant_ecwt_release_20260625T161629Z,plant_ecwt_policy_result_all_plants_normalized_active_window_loaded_year_20260625T161313Z,no_station_edge_case_excluded,eia860:2024:plant:7708,7708,APC1,195,Alabama Power Co,AL,,unsited,,0,,,blocked,no_station_candidates,"Excluded as nonphysical, unsited, unlocatable, or not first-operable under current review."
scoped_plant_ecwt_release_20260625T161629Z,plant_ecwt_policy_result_all_plants_normalized_active_window_loaded_year_20260625T161313Z,no_station_edge_case_excluded,eia860:2024:plant:7876,7876,APC2,195,Alabama Power Co,AL,,unsited,,,,,blocked,no_station_candidates,"Excluded as nonphysical, unsited, unlocatable, or not first-operable under current review."
scoped_plant_ecwt_release_20260625T161629Z,plant_ecwt_policy_result_all_plants_normalized_active_window_loaded_year_20260625T161313Z,no_station_edge_case_excluded,eia860:2024:plant:7877,7877,APC3,195,Alabama Power Co,AL,,unsited,,,,,blocked,no_station_candidates,"Excluded as nonphysical, unsited, unlocatable, or not first-operable under current review."
scoped_plant_ecwt_release_20260625T161629Z,plant_ecwt_policy_result_all_plants_normalized_active_window_loaded_year_20260625T161313Z,no_station_edge_case_excluded,eia860:2024:plant:7744,7744,Unsited,6452,Florida Power & Light Co,FL,,,,0,,,blocked,no_station_candidates,"Excluded as nonphysical, unsited, unlocatable, or not first-operable under current review."
scoped_plant_ecwt_release_20260625T161629Z,plant_ecwt_policy_result_all_plants_normalized_active_window_loaded_year_20260625T161313Z,no_station_edge_case_excluded,eia860:2024:plant:7889,7889,NA 1,18454,Tampa Electric Co,FL,,,,,,,blocked,no_station_candidates,"Excluded as nonphysical, unsited, unlocatable, or not first-operable under current review."
scoped_plant_ecwt_release_20260625T161629Z,plant_ecwt_policy_result_all_plants_normalized_active_window_loaded_year_20260625T161313Z,no_station_edge_case_excluded,eia860:2024:plant:7890,7890,Unnamed,21554,Seminole Electric Cooperative Inc,FL,,,,,,,blocked,no_station_candidates,"Excluded as nonphysical, unsited, unlocatable, or not first-operable under current review."
scoped_plant_ecwt_release_20260625T161629Z,plant_ecwt_policy_result_all_plants_normalized_active_window_loaded_year_20260625T161313Z,no_station_edge_case_excluded,eia860:2024:plant:7893,7893,Midway,6452,Florida Power & Light Co,FL,Taylor,,,,,,blocked,no_station_candidates,"Excluded as nonphysical, unsited, unlocatable, or not first-operable under current review."
scoped_plant_ecwt_release_20260625T161629Z,plant_ecwt_policy_result_all_plants_normalized_active_window_loaded_year_20260625T161313Z,no_station_edge_case_excluded,eia860:2024:plant:56354,56354,Tampa Electric Co NA 4,18454,Tampa Electric Co,FL,,,Unknown,0,,,blocked,no_station_candidates,"Excluded as nonphysical, unsited, unlocatable, or not first-operable under current review."
scoped_plant_ecwt_release_20260625T161629Z,plant_ecwt_policy_result_all_plants_normalized_active_window_loaded_year_20260625T161313Z,no_station_edge_case_excluded,eia860:2024:plant:7711,7711,GPC3,7140,Georgia Power Co,GA,,,,0,,,blocked,no_station_candidates,"Excluded as nonphysical, unsited, unlocatable, or not first-operable under current review."
scoped_plant_ecwt_release_20260625T161629Z,plant_ecwt_policy_result_all_plants_normalized_active_window_loaded_year_20260625T161313Z,no_station_edge_case_excluded,eia860:2024:plant:7712,7712,GPC4,7140,Georgia Power Co,GA,,,,0,,,blocked,no_station_candidates,"Excluded as nonphysical, unsited, unlocatable, or not first-operable under current review."
scoped_plant_ecwt_release_20260625T161629Z,plant_ecwt_policy_result_all_plants_normalized_active_window_loaded_year_20260625T161313Z,no_station_edge_case_excluded,eia860:2024:plant:7713,7713,GPC5,7140,Georgia Power Co,GA,,,,0,,,blocked,no_station_candidates,"Excluded as nonphysical, unsited, unlocatable, or not first-operable under current review."
scoped_plant_ecwt_release_20260625T161629Z,plant_ecwt_policy_result_all_plants_normalized_active_window_loaded_year_20260625T161313Z,no_station_edge_case_excluded,eia860:2024:plant:7714,7714,GPC6,7140,Georgia Power Co,GA,,,,0,,,blocked,no_station_candidates,"Excluded as nonphysical, unsited, unlocatable, or not first-operable under current review."
scoped_plant_ecwt_release_20260625T161629Z,plant_ecwt_policy_result_all_plants_normalized_active_window_loaded_year_20260625T161313Z,no_station_edge_case_excluded,eia860:2024:plant:7879,7879,MEAG1,13100,Municipal Electric Authority,GA,,unsited,,,,,blocked,no_station_candidates,"Excluded as nonphysical, unsited, unlocatable, or not first-operable under current review."
scoped_plant_ecwt_release_20260625T161629Z,plant_ecwt_policy_result_all_plants_normalized_active_window_loaded_year_20260625T161313Z,no_station_edge_case_excluded,eia860:2024:plant:7880,7880,MEAG2,13100,Municipal Electric Authority,GA,,unsited,,,,,blocked,no_station_candidates,"Excluded as nonphysical, unsited, unlocatable, or not first-operable under current review."
scoped_plant_ecwt_release_20260625T161629Z,plant_ecwt_policy_result_all_plants_normalized_active_window_loaded_year_20260625T161313Z,no_station_edge_case_excluded,eia860:2024:plant:7881,7881,MEAG3,13100,Municipal Electric Authority,GA,,unsited,,,,,blocked,no_station_candidates,"Excluded as nonphysical, unsited, unlocatable, or not first-operable under current review."
scoped_plant_ecwt_release_20260625T161629Z,plant_ecwt_policy_result_all_plants_normalized_active_window_loaded_year_20260625T161313Z,no_station_edge_case_excluded,eia860:2024:plant:7228,7228,NA 1 (IN),15470,"Duke Energy Indiana, LLC",IN,NOT IN FILE,,,0,,,blocked,no_station_candidates,"Excluded as nonphysical, unsited, unlocatable, or not first-operable under current review."
scoped_plant_ecwt_release_20260625T161629Z,plant_ecwt_policy_result_all_plants_normalized_active_window_loaded_year_20260625T161313Z,no_station_edge_case_excluded,eia860:2024:plant:7894,7894,Unknown,11249,Louisville Gas & Electric Co,KY,,,,,,,blocked,no_station_candidates,"Excluded as nonphysical, unsited, unlocatable, or not first-operable under current review."
scoped_plant_ecwt_release_20260625T161629Z,plant_ecwt_policy_result_all_plants_normalized_active_window_loaded_year_20260625T161313Z,no_station_edge_case_excluded,eia860:2024:plant:7875,7875,MPC1,12686,Mississippi Power Co,MS,,unknown,unknown,,,,blocked,no_station_candidates,"Excluded as nonphysical, unsited, unlocatable, or not first-operable under current review."
scoped_plant_ecwt_release_20260625T161629Z,plant_ecwt_policy_result_all_plants_normalized_active_window_loaded_year_20260625T161313Z,no_station_edge_case_excluded,eia860:2024:plant:7539,7539,NA 1 (NC),3046,Duke Energy Progress - (NC),NC,NOT IN FILE,unsited,unsited,0,,,blocked,no_station_candidates,"Excluded as nonphysical, unsited, unlocatable, or not first-operable under current review."
scoped_plant_ecwt_release_20260625T161629Z,plant_ecwt_policy_result_all_plants_normalized_active_window_loaded_year_20260625T161313Z,no_station_edge_case_excluded,eia860:2024:plant:7727,7727,Future Gen Plant 1,3046,Duke Energy Progress - (NC),NC,,unsited,unsited,0,,,blocked,no_station_candidates,"Excluded as nonphysical, unsited, unlocatable, or not first-operable under current review."
scoped_plant_ecwt_release_20260625T161629Z,plant_ecwt_policy_result_all_plants_normalized_active_window_loaded_year_20260625T161313Z,no_station_edge_case_excluded,eia860:2024:plant:7728,7728,Future Gen Plant 2,3046,Duke Energy Progress - (NC),NC,,unsited,unsited,0,,,blocked,no_station_candidates,"Excluded as nonphysical, unsited, unlocatable, or not first-operable under current review."
scoped_plant_ecwt_release_20260625T161629Z,plant_ecwt_policy_result_all_plants_normalized_active_window_loaded_year_20260625T161313Z,no_station_edge_case_excluded,eia860:2024:plant:55252,55252,Eddy County Generating Station,15473,Public Service Co of NM,NM,Eddy,,,,,,blocked,no_station_candidates,"Excluded as nonphysical, unsited, unlocatable, or not first-operable under current review."
scoped_plant_ecwt_release_20260625T161629Z,plant_ecwt_policy_result_all_plants_normalized_active_window_loaded_year_20260625T161313Z,no_station_edge_case_excluded,eia860:2024:plant:7106,7106,NA 1 (SC),17539,"Dominion Energy South Carolina, Inc",SC,NOT IN FILE,unsited,unsited,0,,,blocked,no_station_candidates,"Excluded as nonphysical, unsited, unlocatable, or not first-operable under current review."
scoped_plant_ecwt_release_20260625T161629Z,plant_ecwt_policy_result_all_plants_normalized_active_window_loaded_year_20260625T161313Z,no_station_edge_case_excluded,eia860:2024:plant:7253,7253,NA 5,17539,"Dominion Energy South Carolina, Inc",SC,NOT IN FILE,unsited,unsited,0,,,blocked,no_station_candidates,"Excluded as nonphysical, unsited, unlocatable, or not first-operable under current review."
scoped_plant_ecwt_release_20260625T161629Z,plant_ecwt_policy_result_all_plants_normalized_active_window_loaded_year_20260625T161313Z,no_station_edge_case_excluded,eia860:2024:plant:7300,7300,NA 8,17539,"Dominion Energy South Carolina, Inc",SC,NOT IN FILE,unsited,unsited,0,,,blocked,no_station_candidates,"Excluded as nonphysical, unsited, unlocatable, or not first-operable under current review."
scoped_plant_ecwt_release_20260625T161629Z,plant_ecwt_policy_result_all_plants_normalized_active_window_loaded_year_20260625T161313Z,no_station_edge_case_excluded,eia860:2024:plant:7732,7732,Turbine,5701,El Paso Electric Co,TX,El Paso,NA,El Paso,79938,,,blocked,no_station_candidates,"Excluded as nonphysical, unsited, unlocatable, or not first-operable under current review."
scoped_plant_ecwt_release_20260625T161629Z,plant_ecwt_policy_result_all_plants_normalized_active_window_loaded_year_20260625T161313Z,no_station_edge_case_excluded,eia860:2024:plant:56281,56281,SPI - Everett,17164,Sierra Pacific Industries,WA,Snohomish,515 East Marine View Drive,Everett,98206,,,blocked,no_station_candidates,"Excluded as nonphysical, unsited, unlocatable, or not first-operable under current review."
scoped_plant_ecwt_release_20260625T161629Z,plant_ecwt_policy_result_all_plants_normalized_active_window_loaded_year_20260625T161313Z,no_station_edge_case_excluded,eia860:2024:plant:60203,60203,Wheaton Solar,13781,Northern States Power Co - Minnesota,WI,Chippewa,TBD,Wheaton,,,,blocked,no_station_candidates,"Excluded as nonphysical, unsited, unlocatable, or not first-operable under current review."
